[
  {
    "id": "1",
    "name": "Solo Per Due",
    "address": "Via Villa di Orazio, 2, 02040 Vacone RI, Italy",
    "state": "fullyBooked",
    "cuisine": "gourmet",
    "lat": 42.381360706213684,
    "lng": 12.64713608465474,
    "website": "https://www.soloperdue.it/en/home-2/",
    "lastMentioned": "2020-11-24",
    "lastReview": "A slice of Heaven. Unutterably beautiful experience from beginning to end & I can't wait to go again"
  },
  {
    "id": "2",
    "name": "Sunday Dinner",
    "address": "Atelier A-2, 83, rue de la Tombe Issoire 75014 Paris, France",
    "state": "available",
    "cuisine": "casual",
    "lat": 48.827456704642735,
    "lng": 2.332560784482034,
    "lastMentioned": "2020-11-24",
    "lastReview": "This is a very nice restaurant"
  },
  {
    "id": "3",
    "name": "Derriére",
    "address": "69 Rue des Gravilliers, 75003 Paris, France",
    "state": "closed",
    "cuisine": "french",
    "lat": 48.864700278714835,
    "lng": 2.354217105614664,
    "website": "https://www.derriere-resto.com/",
    "lastMentioned": "2019-04-07",
    "lastReview": "An amazing spot in Paris. Food was great also the wine and champagne!"
  },
  {
    "id": "4",
    "name": "La Contrasenya",
    "address": "Carrer de Joan d'Àustria, 95, 08018 Barcelona, Spain",
    "state": "fewTablesLeft",
    "cuisine": "mediterranian",
    "lat": 41.395284805411656,
    "lng": 2.1886073841917395,
    "website": "http://vinent.net/la-contrasenya/espai-singular/",
    "lastMentioned": "2020-11-24",
    "lastReview": "This small, experimental restaurant is fine dining meets home cooking."
  },
  {
    "id": "5",
    "name": "The Marram Grass",
    "address": "White Lodge, Niwbwrch, Pen-lôn, Llanfairpwllgwyngyll LL61 6RS, UK",
    "state": "fewTablesLeft",
    "cuisine": "experimental",
    "lat": 53.159331245786326,
    "lng": -4.348815630677568,
    "website": "https://www.themarramgrass.com/",
    "lastMentioned": "2020-05-18",
    "lastReview": "Just lovely food and excellent service. A wonderful setting too."
  },
  {
    "id": "6",
    "name": "The Rabbit Hole",
    "address": "Gelibolu Sokak, Ankara, Turkey",
    "state": "fullyBooked",
    "cuisine": "mezzes",
    "lat": 39.90054268612589,
    "lng": 32.8583151553017,
    "website": "https://www.the62hole.com/",
    "lastMentioned": "2020-11-24",
    "lastReview": "An unmissable experience, I can't wait for my second visit."
  },
  {
    "id": "7",
    "name": "Bollicine",
    "address": "Florou Zouganeli 3, Mykonos Town 84600, Greece",
    "state": "available",
    "cuisine": "mediterranian",
    "lat": 37.4461921661481,
    "lng": 25.329150797544518,
    "website": "https://www.bollicinemykonos.com/",
    "lastMentioned": "2018-09-03",
    "lastReview": "This place is a hidden gem and lots of locals and Greeks go there."
  },
  {
    "id": "8",
    "name": "Lilla Ego",
    "address": "Västmannagatan 69, 113 26 Stockholm, Sweden",
    "state": "fullyBooked",
    "cuisine": "nordic",
    "lat": 59.34367125719564,
    "lng": 18.045589471460076,
    "website": "http://www.lillaego.com/",
    "lastMentioned": "2019-12-14",
    "lastReview": "This place serves amazing food combined with the right beverages and has great service."
  },
  {
    "id": "9",
    "name": "Adler",
    "address": "Dorf 5, 6942 Krumbach, Austria",
    "state": "available",
    "cuisine": "local",
    "lat": 47.48306068172359,
    "lng": 9.934689584426808,
    "website": "http://www.adler-krumbach.at/wordpress/",
    "lastMentioned": "2021-03-14",
    "lastReview": "Excellent food from locally grown ingrediends."
  },
  {
    "id": "10",
    "name": "Jelica",
    "address": "Na Zlíchově 35, 150 00 Praha 5, Czech Republic",
    "state": "available",
    "cuisine": "eastern european raw food",
    "lat": 50.04830485769593,
    "lng": 14.40842835569686,
    "website": "https://www.jelica.cz/",
    "lastMentioned": "2019-10-11",
    "lastReview": "Serbian village garden mixed with TOP raw food."
  }
]
